City_ID,City,Lat,Lng,Max Temp,Humidity,Cloudiness,Wind Speed,Description,Rain inches (last 3 hrs),Snow inches (last 3 hrs),Country,Date
0,Kodiak,57.79,-152.41,19.4,48,20,38.21,few clouds,0.0,0.0,US,2020-02-22 06:23:01
1,Vaini,-21.2,-175.2,80.6,78,75,13.87,smoke,0.0,0.0,TO,2020-02-22 06:26:40
2,Port Alfred,-33.59,26.89,69.01,90,96,5.01,light rain,0.19,0.0,ZA,2020-02-22 06:26:42
3,Busselton,-33.65,115.33,81.0,40,100,9.24,overcast clouds,0.0,0.0,AU,2020-02-22 06:26:47
4,Punta Arenas,-53.15,-70.92,53.6,81,79,14.99,broken clouds,0.0,0.0,CL,2020-02-22 06:25:06
5,Hambantota,6.12,81.12,82.4,100,75,10.29,broken clouds,0.0,0.0,LK,2020-02-22 06:26:55
6,Lebu,-37.62,-73.65,49.96,98,4,1.86,clear sky,0.0,0.0,CL,2020-02-22 06:22:57
7,Bambous Virieux,-20.34,57.76,82.99,58,20,5.82,few clouds,0.0,0.0,MU,2020-02-22 06:26:58
8,Kokopo,-4.35,152.26,85.3,75,0,16.15,clear sky,0.0,0.0,PG,2020-02-22 06:26:59
9,Saint Anthony,45.02,-93.22,25.0,85,1,4.7,clear sky,0.0,0.0,US,2020-02-22 06:27:00
10,Tasiilaq,65.61,-37.64,17.6,61,66,2.24,broken clouds,0.0,0.0,GL,2020-02-22 06:23:12
11,Omboue,-1.57,9.26,75.85,94,97,2.75,light rain,0.13,0.0,GA,2020-02-22 06:27:34
12,Katsuura,35.13,140.3,66.0,55,40,25.28,scattered clouds,0.0,0.0,JP,2020-02-22 06:23:42
13,Mount Isa,-20.73,139.5,96.8,23,100,8.05,overcast clouds,0.0,0.0,AU,2020-02-22 06:27:36
14,Bluff,-46.6,168.33,55.0,60,12,11.01,few clouds,0.0,0.0,NZ,2020-02-22 06:22:42
15,Glendive,47.11,-104.71,33.8,74,1,12.75,clear sky,0.0,0.0,US,2020-02-22 06:27:38
16,Hobart,-42.88,147.33,73.0,49,16,17.22,few clouds,0.0,0.0,AU,2020-02-22 06:25:58
17,Yellowknife,62.46,-114.35,1.0,84,5,10.29,clear sky,0.0,0.0,CA,2020-02-22 06:23:31
18,Quatre Cocos,-20.21,57.76,82.99,58,20,5.82,few clouds,0.0,0.0,MU,2020-02-22 06:27:40
19,Mataura,-46.19,168.86,55.0,60,60,11.01,broken clouds,0.0,0.0,NZ,2020-02-22 06:27:41
20,Mount Gambier,-37.83,140.77,69.8,56,4,18.34,clear sky,0.0,0.0,AU,2020-02-22 06:27:42
21,Puerto Ayora,-0.74,-90.35,78.13,86,47,3.74,light rain,0.19,0.0,EC,2020-02-22 06:27:44
22,Albany,42.6,-73.97,26.6,42,1,8.05,clear sky,0.0,0.0,US,2020-02-22 06:27:45
23,Mangrol,21.12,70.12,79.88,42,13,5.17,few clouds,0.0,0.0,IN,2020-02-22 06:27:46
24,Airai,-8.93,125.41,76.21,85,100,2.77,moderate rain,4.81,0.0,TL,2020-02-22 06:27:48
25,Butaritari,3.07,172.79,79.93,81,100,10.29,light rain,1.69,0.0,KI,2020-02-22 06:27:48
26,Nikolskoye,59.7,30.79,37.99,74,75,17.9,broken clouds,0.0,0.0,RU,2020-02-22 06:27:49
27,Bichura,50.59,107.6,16.36,78,82,2.21,broken clouds,0.0,0.0,RU,2020-02-22 06:27:50
28,Atuona,-9.8,-139.03,81.72,78,98,15.82,overcast clouds,0.0,0.0,PF,2020-02-22 06:22:51
29,Coquimbo,-29.95,-71.34,60.8,87,90,2.24,overcast clouds,0.0,0.0,CL,2020-02-22 06:27:52
30,Rikitea,-23.12,-134.97,78.22,74,16,8.32,light rain,0.13,0.0,PF,2020-02-22 06:27:52
31,Fortuna,40.6,-124.16,48.99,93,90,1.23,overcast clouds,0.0,0.0,US,2020-02-22 06:23:16
32,Hermanus,-34.42,19.23,70.0,79,94,5.99,overcast clouds,0.0,0.0,ZA,2020-02-22 06:27:54
33,Ushuaia,-54.8,-68.3,55.4,76,40,17.22,scattered clouds,0.0,0.0,AR,2020-02-22 06:27:56
34,Tinogboc,12.01,121.41,79.3,75,0,30.65,clear sky,0.0,0.0,PH,2020-02-22 06:27:56
35,Yining,29.04,114.56,64.99,54,0,1.99,clear sky,0.0,0.0,CN,2020-02-22 06:27:57
36,Tomatlan,19.93,-105.25,70.27,89,26,2.08,scattered clouds,0.0,0.0,MX,2020-02-22 06:27:57
37,Dmitriyevskaya,45.66,40.77,38.98,80,100,14.67,overcast clouds,0.0,0.0,RU,2020-02-22 06:27:58
38,Ponta Do Sol,32.67,-17.1,63.0,77,40,9.17,scattered clouds,0.0,0.0,PT,2020-02-22 06:27:59
39,Avarua,-21.21,-159.78,82.4,83,2,9.17,light rain,0.31,0.0,CK,2020-02-22 06:28:00
40,Krasnogorsk,55.82,37.32,34.0,80,83,8.95,broken clouds,0.0,0.0,RU,2020-02-22 06:28:00
41,Obodivka,48.41,29.25,30.0,87,16,3.2,few clouds,0.0,0.0,UA,2020-02-22 06:28:01
42,Tuatapere,-46.13,167.68,55.0,60,24,11.01,few clouds,0.0,0.0,NZ,2020-02-22 06:28:01
43,Ancud,-41.87,-73.82,51.8,66,0,5.82,clear sky,0.0,0.0,CL,2020-02-22 06:28:04
44,Carnarvon,-24.87,113.63,84.2,62,40,13.87,scattered clouds,0.0,0.0,AU,2020-02-22 06:28:05
45,Castro,-24.79,-50.01,62.82,99,95,4.52,light rain,0.19,0.0,BR,2020-02-22 06:28:06
46,Altamira,-3.2,-52.21,72.84,92,90,1.95,overcast clouds,0.0,0.0,BR,2020-02-22 06:24:00
47,Sao Filipe,14.9,-24.5,67.42,83,73,20.11,broken clouds,0.0,0.0,CV,2020-02-22 06:28:08
48,Sabha,27.04,14.43,49.3,59,0,8.41,clear sky,0.0,0.0,LY,2020-02-22 06:28:08
49,Marawi,8.0,124.29,82.0,76,21,10.0,few clouds,0.0,0.0,PH,2020-02-22 06:28:09
50,Yeniseysk,58.45,92.17,25.72,89,97,2.13,overcast clouds,0.0,0.0,RU,2020-02-22 06:28:10
51,Bengkulu,-3.8,102.27,89.87,53,6,4.16,clear sky,0.0,0.0,ID,2020-02-22 06:28:11
52,Lazaro Cardenas,17.96,-102.2,72.32,84,0,3.36,clear sky,0.0,0.0,MX,2020-02-22 06:28:10
53,Chuy,-33.7,-53.46,59.47,66,41,11.72,scattered clouds,0.0,0.0,UY,2020-02-22 06:28:13
54,Touros,-5.2,-35.46,77.0,94,40,2.24,shower rain,0.0,0.0,BR,2020-02-22 06:28:14
55,Kargopol,61.51,38.95,32.67,87,95,15.46,light snow,0.0,0.13,RU,2020-02-22 06:28:15
56,Alexandria,31.22,29.96,53.6,76,40,9.17,scattered clouds,0.0,0.0,EG,2020-02-22 06:25:49
57,Lagoa,39.05,-27.98,60.1,78,52,8.16,broken clouds,0.0,0.0,PT,2020-02-22 06:28:19
58,Podor,16.65,-14.96,69.13,29,83,8.61,broken clouds,0.0,0.0,MR,2020-02-22 06:28:20
59,Severo-Kurilsk,50.68,156.12,15.85,88,94,23.0,light snow,0.0,0.38,RU,2020-02-22 06:28:21
60,Palmer,42.16,-72.33,27.0,49,1,6.93,clear sky,0.0,0.0,US,2020-02-22 06:28:22
61,Ranong,9.97,98.63,87.8,58,75,12.75,broken clouds,0.0,0.0,TH,2020-02-22 06:28:22
62,Kapaa,22.08,-159.32,73.4,78,90,13.87,overcast clouds,0.0,0.0,US,2020-02-22 06:28:26
63,Bandarbeyla,9.49,50.81,77.29,69,19,11.12,few clouds,0.0,0.0,SO,2020-02-22 06:28:27
64,Stromness,58.97,-3.3,37.4,59,98,35.57,light snow,0.0,0.75,GB,2020-02-22 06:26:03
65,New Norfolk,-42.78,147.06,73.0,49,11,17.22,few clouds,0.0,0.0,AU,2020-02-22 06:28:29
66,Lata,40.16,-8.33,55.99,93,0,2.24,clear sky,0.0,0.0,PT,2020-02-22 06:24:33
67,Barrow,71.29,-156.79,-9.4,76,90,5.82,overcast clouds,0.0,0.0,US,2020-02-22 06:25:01
68,Sundumbili,-29.13,31.4,78.8,78,0,8.05,clear sky,0.0,0.0,ZA,2020-02-22 06:28:32
69,Boa Vista,2.82,-60.67,80.6,65,81,9.17,broken clouds,0.0,0.0,BR,2020-02-22 06:28:32
70,Pokhara,28.23,83.98,78.42,30,0,3.0,clear sky,0.0,0.0,NP,2020-02-22 06:28:34
71,Coihaique,-45.58,-72.07,46.4,70,0,2.15,clear sky,0.0,0.0,CL,2020-02-22 06:27:11
72,Bethel,41.37,-73.41,32.0,42,1,5.82,clear sky,0.0,0.0,US,2020-02-22 06:28:36
73,Carutapera,-1.2,-46.02,79.99,78,100,2.46,light rain,1.25,0.0,BR,2020-02-22 06:28:39
74,Wheeling,42.14,-87.93,30.99,54,1,14.99,clear sky,0.0,0.0,US,2020-02-22 06:28:40
75,Mandurah,-32.55,115.7,82.4,58,40,8.05,scattered clouds,0.0,0.0,AU,2020-02-22 06:27:27
76,Komsomolskiy,40.43,71.72,50.0,66,56,6.93,broken clouds,0.0,0.0,UZ,2020-02-22 06:28:42
77,Qaanaaq,77.48,-69.36,-19.12,55,90,4.76,overcast clouds,0.0,0.0,GL,2020-02-22 06:28:43
78,Soyo,-6.13,12.37,78.8,83,20,6.93,few clouds,0.0,0.0,AO,2020-02-22 06:28:44
79,Karakol,42.49,78.39,34.74,94,91,1.41,overcast clouds,0.0,0.0,KG,2020-02-22 06:28:46
80,Jamestown,42.1,-79.24,30.2,53,1,16.11,clear sky,0.0,0.0,US,2020-02-22 06:28:47
81,Hilo,19.73,-155.09,69.8,77,90,6.93,light rain,0.0,0.0,US,2020-02-22 06:28:48
82,Vardo,70.37,31.11,33.15,84,97,33.46,overcast clouds,0.0,0.0,NO,2020-02-22 06:28:49
83,Cockburn Town,21.46,-71.14,77.23,73,48,8.01,scattered clouds,0.0,0.0,TC,2020-02-22 06:25:01
84,Port Keats,-14.25,129.55,96.06,39,69,8.77,broken clouds,0.0,0.0,AU,2020-02-22 06:28:51
85,Aleysk,52.49,82.78,25.7,94,100,0.56,light snow,0.0,0.88,RU,2020-02-22 06:28:52
86,Westport,41.14,-73.36,34.0,42,1,8.05,clear sky,0.0,0.0,US,2020-02-22 06:28:54
87,Atar,20.52,-13.05,66.43,15,52,4.52,broken clouds,0.0,0.0,MR,2020-02-22 06:28:55
88,Strezhevoy,60.73,77.59,15.8,56,94,8.95,overcast clouds,0.0,0.0,RU,2020-02-22 06:28:56
89,Hasaki,35.73,140.83,64.4,55,75,19.46,broken clouds,0.0,0.0,JP,2020-02-22 06:28:57
90,Pouebo,-20.4,164.57,77.94,79,92,1.16,light rain,0.44,0.0,NC,2020-02-22 06:28:58
91,Saldanha,-33.01,17.94,68.0,77,65,1.12,broken clouds,0.0,0.0,ZA,2020-02-22 06:28:59
92,Grindavik,63.84,-22.43,32.0,77,40,17.22,scattered clouds,0.0,0.0,IS,2020-02-22 06:29:00
93,Toowoomba,-27.55,151.97,77.0,61,14,24.16,light rain,0.44,0.0,AU,2020-02-22 06:29:02
94,Laguna,38.42,-121.42,60.8,47,1,5.82,clear sky,0.0,0.0,US,2020-02-22 06:24:46
95,Muisne,0.6,-80.03,77.81,87,89,4.83,overcast clouds,0.0,0.0,EC,2020-02-22 06:29:03
96,Port Elizabeth,-33.92,25.57,69.8,73,20,19.46,few clouds,0.0,0.0,ZA,2020-02-22 06:29:04
97,Yar-Sale,66.83,70.83,8.8,79,58,16.96,broken clouds,0.0,0.0,RU,2020-02-22 06:29:04
98,Catuday,16.29,119.81,79.09,60,0,10.16,clear sky,0.0,0.0,PH,2020-02-22 06:29:06
99,Lavrentiya,65.58,-171.0,-13.67,88,94,1.72,overcast clouds,0.0,0.0,RU,2020-02-22 06:29:06
100,Visby,57.64,18.3,43.0,100,100,34.45,light rain,0.5,0.0,SE,2020-02-22 06:29:07
101,Nizhnevartovsk,60.93,76.55,15.8,56,25,8.95,scattered clouds,0.0,0.0,RU,2020-02-22 06:29:08
102,Lota,-37.08,-73.17,55.4,87,46,2.24,scattered clouds,0.0,0.0,CL,2020-02-22 06:29:09
103,Miles City,46.41,-105.84,33.01,55,1,8.05,clear sky,0.0,0.0,US,2020-02-22 06:29:11
104,Belmonte,-15.86,-38.88,78.8,83,75,4.7,broken clouds,0.0,0.0,BR,2020-02-22 06:29:12
105,Hithadhoo,-0.6,73.08,81.41,78,98,9.04,light rain,0.69,0.0,MV,2020-02-22 06:29:12
106,Tessalit,20.2,1.01,67.96,11,79,11.48,broken clouds,0.0,0.0,ML,2020-02-22 06:29:14
107,Gigmoto,13.78,124.39,79.0,79,51,22.91,light rain,1.44,0.0,PH,2020-02-22 06:29:14
108,Jalu,29.03,21.55,50.07,68,0,7.14,clear sky,0.0,0.0,LY,2020-02-22 06:29:16
109,Smithers,54.78,-127.17,32.0,87,90,2.24,overcast clouds,0.0,0.0,CA,2020-02-22 06:27:49
110,Beyneu,45.32,55.2,36.28,68,0,5.17,clear sky,0.0,0.0,KZ,2020-02-22 06:29:17
111,Ughelli,5.49,6.01,77.61,95,0,3.04,clear sky,0.0,0.0,NG,2020-02-22 06:29:19
112,Eurajoki,61.3,21.75,41.0,86,90,14.99,shower rain,0.0,0.0,FI,2020-02-22 06:29:21
113,Alofi,-19.06,-169.92,80.6,88,75,9.17,broken clouds,0.0,0.0,NU,2020-02-22 06:29:22
114,Huntsville,34.73,-86.59,32.0,68,1,4.7,clear sky,0.0,0.0,US,2020-02-22 06:24:56
115,Ilulissat,69.22,-51.1,-5.8,53,100,4.7,overcast clouds,0.0,0.0,GL,2020-02-22 06:29:24
116,Luganville,-15.53,167.17,86.0,66,20,5.82,few clouds,0.0,0.0,VU,2020-02-22 06:29:25
117,Khatanga,71.97,102.5,-11.96,95,0,8.05,clear sky,0.0,0.0,RU,2020-02-22 06:29:26
118,Margate,51.38,1.39,51.01,81,75,21.92,light rain,0.0,0.0,GB,2020-02-22 06:29:26
119,Lorengau,-2.02,147.27,84.11,75,37,11.27,light rain,0.19,0.0,PG,2020-02-22 06:29:27
120,Mar Del Plata,-38.0,-57.56,57.0,81,75,4.7,broken clouds,0.0,0.0,AR,2020-02-22 06:29:28
121,Muhos,64.75,26.17,37.4,93,20,12.75,few clouds,0.0,0.0,FI,2020-02-22 06:29:30
122,Am Timan,11.03,20.28,74.98,21,0,8.75,clear sky,0.0,0.0,TD,2020-02-22 06:29:31
123,Valer,60.68,11.83,42.8,87,75,17.22,light rain,0.0,0.0,NO,2020-02-22 06:29:31
124,Cabedelo,-6.98,-34.83,78.8,94,40,2.24,scattered clouds,0.0,0.0,BR,2020-02-22 06:29:32
125,Zhigansk,66.77,123.37,-6.5,96,98,6.38,overcast clouds,0.0,0.0,RU,2020-02-22 06:29:33
126,Rorvik,64.86,11.24,40.33,77,97,35.46,light rain,1.37,0.0,NO,2020-02-22 06:29:34
127,Naze,28.37,129.48,66.2,88,75,9.17,light rain,0.0,0.0,JP,2020-02-22 06:29:35
128,Georgetown,5.41,100.34,93.2,46,20,13.87,few clouds,0.0,0.0,MY,2020-02-22 06:29:35
129,Bredasdorp,-34.53,20.04,71.6,60,13,9.17,few clouds,0.0,0.0,ZA,2020-02-22 06:29:37
130,General Pico,-35.66,-63.76,52.05,47,0,5.97,clear sky,0.0,0.0,AR,2020-02-22 06:29:37
131,Port-Cartier,50.03,-66.87,21.2,79,90,5.82,light snow,0.0,0.0,CA,2020-02-22 06:27:08
132,Muravlenko,63.79,74.52,5.85,87,0,11.32,clear sky,0.0,0.0,RU,2020-02-22 06:29:40
133,Tuktoyaktuk,69.45,-133.04,5.0,84,90,5.82,overcast clouds,0.0,0.0,CA,2020-02-22 06:29:41
134,Berlevag,70.86,29.09,34.47,79,100,39.46,overcast clouds,0.0,0.0,NO,2020-02-22 06:29:42
135,Chokurdakh,70.63,147.92,-21.1,97,55,1.23,broken clouds,0.0,0.0,RU,2020-02-22 06:29:42
136,Comodoro Rivadavia,-45.87,-67.5,59.0,47,0,3.36,clear sky,0.0,0.0,AR,2020-02-22 06:29:43
137,Arrecife,28.96,-13.55,66.2,59,0,11.41,clear sky,0.0,0.0,ES,2020-02-22 06:29:46
138,Aktash,50.3,87.73,28.0,92,100,1.79,overcast clouds,0.0,0.0,RU,2020-02-22 06:29:46
139,Upernavik,72.79,-56.15,-17.0,96,94,1.07,overcast clouds,0.0,0.0,GL,2020-02-22 06:29:47
140,Salekhard,66.53,66.6,6.4,90,94,12.86,overcast clouds,0.0,0.0,RU,2020-02-22 06:29:48
141,Khakhea,-24.69,23.49,79.25,50,64,4.76,broken clouds,0.0,0.0,BW,2020-02-22 06:29:49
142,Chapais,49.78,-74.85,26.6,68,90,12.75,light snow,0.0,0.0,CA,2020-02-22 06:25:07
143,Banjar,-8.19,114.97,82.4,94,75,21.92,light rain,0.0,0.0,ID,2020-02-22 06:24:55
144,Almaznyy,48.04,40.05,33.8,99,75,13.42,mist,0.0,0.0,RU,2020-02-22 06:29:52
145,Kahului,20.89,-156.47,73.4,64,1,13.87,clear sky,0.0,0.0,US,2020-02-22 06:29:54
146,Saint-Louis,16.33,-15.0,69.13,29,83,8.61,broken clouds,0.0,0.0,SN,2020-02-22 06:29:54
147,Esperance,-33.87,121.9,86.0,30,40,6.93,scattered clouds,0.0,0.0,AU,2020-02-22 06:29:55
148,Bilibino,68.05,166.44,-18.33,98,100,2.62,overcast clouds,0.0,0.0,RU,2020-02-22 06:29:56
149,Mahebourg,-20.41,57.7,82.99,58,20,5.82,few clouds,0.0,0.0,MU,2020-02-22 06:29:58
150,Manzanillo,20.34,-77.12,71.69,81,23,3.53,few clouds,0.0,0.0,CU,2020-02-22 06:29:59
151,Waw,7.7,28.0,78.84,14,0,7.4,clear sky,0.0,0.0,SS,2020-02-22 06:29:59
152,Nadym,65.53,72.52,7.38,82,0,10.87,clear sky,0.0,0.0,RU,2020-02-22 06:30:00
153,Talaya,61.38,152.75,-17.9,90,52,0.25,broken clouds,0.0,0.0,RU,2020-02-22 06:30:02
154,Arraial Do Cabo,-22.97,-42.03,76.55,90,98,10.58,light rain,1.44,0.0,BR,2020-02-22 06:30:03
155,Victoria,22.29,114.16,82.0,53,20,8.05,few clouds,0.0,0.0,HK,2020-02-22 06:29:40
156,Sitka,57.05,-135.33,33.8,86,90,9.17,light snow,0.0,0.0,US,2020-02-22 06:30:09
157,Amnat Charoen,15.86,104.63,89.01,32,0,18.59,clear sky,0.0,0.0,TH,2020-02-22 06:30:10
158,Dikson,73.51,80.55,11.73,91,100,22.32,overcast clouds,0.0,0.0,RU,2020-02-22 06:30:11
159,Assemini,39.29,9.0,53.6,93,40,3.36,scattered clouds,0.0,0.0,IT,2020-02-22 06:30:12
160,Torbay,47.67,-52.73,14.0,72,5,11.41,clear sky,0.0,0.0,CA,2020-02-22 06:30:03
161,Yeppoon,-23.13,150.73,80.6,74,90,12.75,light intensity shower rain,0.0,0.0,AU,2020-02-22 06:30:14
162,Poum,-20.23,164.02,80.92,77,20,13.67,few clouds,0.0,0.0,NC,2020-02-22 06:30:16
163,Klaksvik,62.23,-6.59,33.8,68,76,36.91,moderate rain,0.0,0.0,FO,2020-02-22 06:30:17
164,Cape Town,-33.93,18.42,70.0,77,75,9.17,broken clouds,0.0,0.0,ZA,2020-02-22 06:30:18
165,Karratha,-20.74,116.85,81.72,80,0,15.95,clear sky,0.0,0.0,AU,2020-02-22 06:28:26
166,Petropavlovsk-Kamchatskiy,53.05,158.65,23.0,32,1,13.42,clear sky,0.0,0.0,RU,2020-02-22 06:30:22
167,Cherskiy,68.75,161.3,-18.98,98,100,3.98,overcast clouds,0.0,0.0,RU,2020-02-22 06:30:23
168,Quito,-0.23,-78.52,57.2,93,90,2.24,fog,0.0,0.0,EC,2020-02-22 06:28:39
169,Port Hedland,-20.32,118.57,93.2,56,0,16.11,clear sky,0.0,0.0,AU,2020-02-22 06:30:24
170,Nancha,47.13,129.27,20.8,80,100,4.59,overcast clouds,0.0,0.0,CN,2020-02-22 06:30:25
171,Bela,25.93,81.98,75.76,51,12,10.87,few clouds,0.0,0.0,IN,2020-02-22 06:30:26
172,Belyy Yar,53.6,91.39,33.8,59,100,2.24,overcast clouds,0.0,0.0,RU,2020-02-22 06:30:27
173,Teya,60.38,92.63,22.17,89,92,2.71,light snow,0.0,0.13,RU,2020-02-22 06:30:28
174,Lakes Entrance,-37.88,147.98,75.99,67,0,8.01,clear sky,0.0,0.0,AU,2020-02-22 06:26:57
175,Lasa,46.62,10.7,35.01,58,40,3.36,scattered clouds,0.0,0.0,IT,2020-02-22 06:30:30
176,Saint George,37.1,-113.58,53.6,23,1,3.36,clear sky,0.0,0.0,US,2020-02-22 06:30:28
177,Khuzdar,27.74,66.64,61.36,25,0,2.82,clear sky,0.0,0.0,PK,2020-02-22 06:30:22
178,Hokitika,-42.72,170.97,59.68,66,55,12.59,light rain,0.13,0.0,NZ,2020-02-22 06:30:33
179,Eyl,7.98,49.82,77.41,73,76,17.38,broken clouds,0.0,0.0,SO,2020-02-22 06:30:34
180,Saskylakh,71.92,114.08,-9.89,96,99,8.39,overcast clouds,0.0,0.0,RU,2020-02-22 06:30:35
181,Jinxiang,22.86,115.7,75.99,62,0,10.18,clear sky,0.0,0.0,CN,2020-02-22 06:30:35
182,Hofn,64.25,-15.21,35.38,95,100,18.3,overcast clouds,0.0,0.0,IS,2020-02-22 06:30:36
183,Bafra,41.57,35.91,44.6,87,90,12.75,light rain,0.0,0.0,TR,2020-02-22 06:30:37
184,Rocky Mountain House,52.37,-114.92,26.53,79,100,3.47,overcast clouds,0.0,0.0,CA,2020-02-22 06:30:38
185,Sorland,67.67,12.69,41.32,69,99,42.05,light snow,0.0,0.63,NO,2020-02-22 06:30:38
186,Shalyhyne,51.57,34.12,31.8,93,31,3.13,scattered clouds,0.0,0.0,UA,2020-02-22 06:30:39
187,Mayo,38.89,-76.51,32.0,63,1,6.11,clear sky,0.0,0.0,US,2020-02-22 06:30:40
188,Kuryk,43.2,51.65,42.35,61,9,8.41,clear sky,0.0,0.0,KZ,2020-02-22 06:30:41
189,Saint-Philippe,-21.36,55.77,84.2,58,24,17.22,few clouds,0.0,0.0,RE,2020-02-22 06:30:42
190,Lompoc,34.64,-120.46,57.99,82,90,3.36,overcast clouds,0.0,0.0,US,2020-02-22 06:30:42
191,Acapulco,16.86,-99.89,77.0,94,5,3.36,clear sky,0.0,0.0,MX,2020-02-22 06:28:49
192,Pasighat,28.07,95.33,75.4,43,100,4.59,overcast clouds,0.0,0.0,IN,2020-02-22 06:30:44
193,Qandala,11.47,49.87,77.2,62,12,3.22,few clouds,0.0,0.0,SO,2020-02-22 06:30:44
194,Hovd,48.01,91.64,17.96,51,100,4.43,overcast clouds,0.0,0.0,MN,2020-02-22 06:30:45
195,Te Anau,-45.42,167.72,53.92,50,19,2.55,few clouds,0.0,0.0,NZ,2020-02-22 06:30:46
196,Half Moon Bay,37.46,-122.43,62.01,44,75,5.82,broken clouds,0.0,0.0,US,2020-02-22 06:30:46
197,Yibin,28.77,104.62,63.45,44,68,5.73,broken clouds,0.0,0.0,CN,2020-02-22 06:30:48
198,Puerto Colombia,10.99,-74.95,77.0,83,40,20.8,scattered clouds,0.0,0.0,CO,2020-02-22 06:30:48
199,Pisco,-13.7,-76.22,73.4,83,20,6.93,few clouds,0.0,0.0,PE,2020-02-22 06:30:49
200,Geraldton,-28.77,114.6,82.4,61,75,24.16,broken clouds,0.0,0.0,AU,2020-02-22 06:30:49
201,Caborca,30.58,-111.1,60.01,80,100,6.08,light rain,0.44,0.0,MX,2020-02-22 06:30:50
202,Gat,31.61,34.76,53.6,87,40,12.75,scattered clouds,0.0,0.0,IL,2020-02-22 06:30:03
203,Ahipara,-35.17,173.17,73.0,100,100,14.63,overcast clouds,0.0,0.0,NZ,2020-02-22 06:30:52
204,Muroto,33.28,134.15,62.6,55,40,17.22,scattered clouds,0.0,0.0,JP,2020-02-22 06:30:53
205,Ostrovnoy,68.05,39.51,32.52,86,94,29.1,overcast clouds,0.0,0.0,RU,2020-02-22 06:30:53
206,Port Hardy,50.7,-127.42,39.2,100,90,3.36,light rain,0.0,0.0,CA,2020-02-22 06:30:33
207,Salalah,17.02,54.09,78.8,65,40,6.93,scattered clouds,0.0,0.0,OM,2020-02-22 06:30:55
208,Rundu,-17.93,19.77,75.2,78,17,2.24,few clouds,0.0,0.0,NA,2020-02-22 06:30:56
209,Avera,33.19,-82.53,33.8,65,1,4.34,clear sky,0.0,0.0,US,2020-02-22 06:30:57
210,Beloha,-25.17,45.05,87.49,50,4,8.5,clear sky,0.0,0.0,MG,2020-02-22 06:30:58
211,Tanout,14.97,8.89,63.21,18,18,12.95,few clouds,0.0,0.0,NE,2020-02-22 06:31:00
212,Ugoofaaru,5.67,73.0,82.89,78,100,16.51,light rain,0.13,0.0,MV,2020-02-22 06:31:00
213,Catamarca,-28.47,-65.79,52.0,83,100,1.01,overcast clouds,0.0,0.0,AR,2020-02-22 06:31:01
214,Khani,41.96,42.96,42.8,100,90,5.82,mist,0.0,0.0,GE,2020-02-22 06:31:01
215,Vermilion,40.17,-87.75,28.4,63,1,3.36,clear sky,0.0,0.0,US,2020-02-22 06:30:33
216,Pangnirtung,66.15,-65.71,-34.2,97,72,0.69,broken clouds,0.0,0.0,CA,2020-02-22 06:31:03
217,Rosetta,31.4,30.42,53.6,76,40,9.17,scattered clouds,0.0,0.0,EG,2020-02-22 06:31:04
218,Ko Samui,9.54,99.94,86.0,70,20,9.17,few clouds,0.0,0.0,TH,2020-02-22 06:29:06
219,Belebey,54.12,54.12,27.16,96,87,2.86,overcast clouds,0.0,0.0,RU,2020-02-22 06:31:06
220,Saint Paul,44.94,-93.09,25.0,92,1,6.93,clear sky,0.0,0.0,US,2020-02-22 06:29:17
221,Brae,60.4,-1.35,39.2,69,99,28.86,light snow,0.0,0.81,GB,2020-02-22 06:31:08
222,Baker City,44.77,-117.83,37.4,73,1,5.1,clear sky,0.0,0.0,US,2020-02-22 06:27:34
223,Dengzhou,37.81,120.75,36.28,54,0,18.57,clear sky,0.0,0.0,CN,2020-02-22 06:31:09
224,Savannakhet,16.57,104.75,87.85,32,0,18.43,clear sky,0.0,0.0,LA,2020-02-22 06:31:10
225,Kalmunai,7.42,81.82,82.17,78,86,19.01,light rain,0.31,0.0,LK,2020-02-22 06:31:11
226,Haftoni,38.76,48.76,50.0,81,75,9.75,broken clouds,0.0,0.0,AZ,2020-02-22 06:31:13
227,Yerbogachen,61.28,108.01,20.39,93,100,6.11,overcast clouds,0.0,0.0,RU,2020-02-22 06:31:14
228,Saint-Pierre,-21.34,55.48,84.2,58,48,17.22,scattered clouds,0.0,0.0,RE,2020-02-22 06:31:20
229,Korla,41.76,86.15,34.43,36,1,3.62,clear sky,0.0,0.0,CN,2020-02-22 06:31:21
230,Saint-Joseph,-21.37,55.62,84.2,58,48,17.22,scattered clouds,0.0,0.0,RE,2020-02-22 06:31:21
231,Kajaani,64.17,27.67,35.6,93,90,13.87,light rain,0.0,0.0,FI,2020-02-22 06:31:22
232,Garden City,42.33,-83.33,28.99,54,1,11.41,clear sky,0.0,0.0,US,2020-02-22 06:31:23
233,Kalachinsk,55.05,74.58,28.99,93,94,3.78,overcast clouds,0.0,0.0,RU,2020-02-22 06:31:24
234,Huejuquilla El Alto,22.6,-103.87,64.33,50,78,1.01,broken clouds,0.0,0.0,MX,2020-02-22 06:31:24
235,Dong Hoi,17.48,106.6,74.77,69,10,7.92,light rain,0.5,0.0,VN,2020-02-22 06:31:25
236,Onega,63.91,38.14,34.05,80,100,20.4,overcast clouds,0.0,0.0,RU,2020-02-22 06:31:26
237,Namibe,-15.2,12.15,75.15,75,79,15.03,broken clouds,0.0,0.0,AO,2020-02-22 06:31:27
238,Ribeira Grande,38.52,-28.7,56.73,83,88,5.59,overcast clouds,0.0,0.0,PT,2020-02-22 06:31:28
239,Mehamn,71.04,27.85,29.01,81,100,24.38,overcast clouds,0.0,0.0,NO,2020-02-22 06:31:29
240,Frontera,26.93,-101.45,48.0,75,81,1.01,broken clouds,0.0,0.0,MX,2020-02-22 06:31:29
241,Namie,37.48,141.0,57.0,71,75,10.29,broken clouds,0.0,0.0,JP,2020-02-22 06:31:30
242,Adrar,20.5,-10.07,70.7,14,100,13.02,overcast clouds,0.0,0.0,MR,2020-02-22 06:31:31
243,Corrente,-3.74,-43.34,70.86,99,100,1.21,light rain,1.0,0.0,BR,2020-02-22 06:31:31
244,Port Lincoln,-34.73,135.87,69.73,55,1,10.36,clear sky,0.0,0.0,AU,2020-02-22 06:31:32
245,Honiara,-9.43,159.95,84.2,79,75,3.36,broken clouds,0.0,0.0,SB,2020-02-22 06:31:32
246,Petropavlovka,50.61,105.32,14.95,75,87,0.6,overcast clouds,0.0,0.0,RU,2020-02-22 06:31:33
247,Cidreira,-30.18,-50.21,66.49,69,0,23.69,clear sky,0.0,0.0,BR,2020-02-22 06:31:34
248,Leshukonskoye,64.9,45.76,31.77,89,100,16.24,light snow,0.0,0.25,RU,2020-02-22 06:31:36
249,Barcelos,41.54,-8.62,46.4,81,0,3.36,clear sky,0.0,0.0,PT,2020-02-22 06:31:37
250,Payo,-3.75,103.64,82.0,61,63,5.12,light rain,0.5,0.0,ID,2020-02-22 06:31:38
251,Galle,6.04,80.22,81.82,77,52,11.21,broken clouds,0.0,0.0,LK,2020-02-22 06:31:39
252,Timbiqui,2.77,-77.67,74.53,97,77,2.71,moderate rain,10.63,0.0,CO,2020-02-22 06:31:39
253,Ketchikan,55.34,-131.65,35.6,91,90,5.82,overcast clouds,0.0,0.0,US,2020-02-22 06:31:40
254,Mawlaik,23.63,94.42,93.92,19,44,0.65,scattered clouds,0.0,0.0,MM,2020-02-22 06:31:41
255,Harnosand,62.63,17.94,44.6,70,100,10.29,overcast clouds,0.0,0.0,SE,2020-02-22 06:31:42
256,Hami,42.8,93.45,40.06,34,26,4.07,scattered clouds,0.0,0.0,CN,2020-02-22 06:31:43
257,Olafsvik,64.89,-23.71,31.28,76,94,25.77,overcast clouds,0.0,0.0,IS,2020-02-22 06:31:44
258,Wenling,28.37,121.36,72.0,23,17,1.01,few clouds,0.0,0.0,CN,2020-02-22 06:31:47
259,Doka,13.52,35.77,74.98,32,5,10.38,clear sky,0.0,0.0,SD,2020-02-22 06:31:48
260,Fairbanks,64.84,-147.72,14.0,78,75,1.1,broken clouds,0.0,0.0,US,2020-02-22 06:30:03
261,Douglas,41.3,-96.17,36.0,69,1,3.36,clear sky,0.0,0.0,US,2020-02-22 06:33:05
262,Bardiyah,31.76,25.09,57.15,64,26,11.25,scattered clouds,0.0,0.0,LY,2020-02-22 06:33:07
263,Klamath Falls,42.22,-121.78,32.0,68,1,3.36,clear sky,0.0,0.0,US,2020-02-22 06:33:08
264,Kavieng,-2.57,150.8,83.77,77,11,12.19,light rain,1.63,0.0,PG,2020-02-22 06:33:09
265,Iqaluit,63.75,-68.51,-34.01,65,5,3.36,clear sky,0.0,0.0,CA,2020-02-22 06:33:10
266,Phalodi,27.13,72.37,72.99,39,0,10.4,clear sky,0.0,0.0,IN,2020-02-22 06:33:11
267,Kavaratti,10.57,72.64,86.0,74,20,4.7,few clouds,0.0,0.0,IN,2020-02-22 06:33:11
268,Felanitx,39.47,3.15,57.99,100,20,1.12,few clouds,0.0,0.0,ES,2020-02-22 06:33:12
269,Siparia,10.13,-61.5,75.99,88,20,4.7,few clouds,0.0,0.0,TT,2020-02-22 06:33:13
270,Mikkeli,61.67,27.25,36.0,100,100,11.99,light rain,1.06,0.0,FI,2020-02-22 06:33:13
271,Los Llanos De Aridane,28.66,-17.92,60.8,67,90,5.82,light rain,0.0,0.0,ES,2020-02-22 06:33:14
272,Tabou,4.42,-7.35,76.57,93,97,1.92,overcast clouds,0.0,0.0,CI,2020-02-22 06:33:15
273,Kaitangata,-46.28,169.85,55.99,52,16,10.0,few clouds,0.0,0.0,NZ,2020-02-22 06:33:16
274,Rio Gallegos,-51.62,-69.22,51.8,87,100,5.82,overcast clouds,0.0,0.0,AR,2020-02-22 06:33:17
275,Bartica,6.4,-58.62,73.4,94,20,1.61,few clouds,0.0,0.0,GY,2020-02-22 06:33:17
276,San Patricio,19.22,-104.7,76.33,82,19,3.69,few clouds,0.0,0.0,MX,2020-02-22 06:33:18
277,Farah,32.5,62.5,65.52,23,0,1.83,clear sky,0.0,0.0,AF,2020-02-22 06:33:19
278,Nago,26.59,127.98,73.4,43,90,11.41,overcast clouds,0.0,0.0,JP,2020-02-22 06:33:19
279,Valparaiso,-33.04,-71.63,59.0,93,40,4.7,scattered clouds,0.0,0.0,CL,2020-02-22 06:33:20
280,Nara,34.69,135.8,55.4,93,75,3.36,broken clouds,0.0,0.0,JP,2020-02-22 06:29:21
281,Belen,36.49,36.22,51.01,100,75,3.36,broken clouds,0.0,0.0,TR,2020-02-22 06:33:21
282,Uvat,59.14,68.9,15.39,90,23,4.21,few clouds,0.0,0.0,RU,2020-02-22 06:33:22
283,North Bend,43.41,-124.22,46.4,87,90,5.82,overcast clouds,0.0,0.0,US,2020-02-22 06:33:24
284,Thompson,55.74,-97.86,23.0,79,20,3.36,few clouds,0.0,0.0,CA,2020-02-22 06:33:24
285,Pacific Grove,36.62,-121.92,59.0,71,40,5.82,scattered clouds,0.0,0.0,US,2020-02-22 06:33:25
286,Yantarnyy,54.87,19.94,39.2,80,40,11.18,scattered clouds,0.0,0.0,RU,2020-02-22 06:33:26
287,Auki,-8.77,160.7,85.08,72,42,7.4,scattered clouds,0.0,0.0,SB,2020-02-22 06:33:27
288,Goundam,16.41,-3.67,71.74,14,100,8.93,overcast clouds,0.0,0.0,ML,2020-02-22 06:33:28
289,Yulara,-25.24,130.99,96.8,13,0,13.87,clear sky,0.0,0.0,AU,2020-02-22 06:33:29
290,Mumford,5.26,-0.76,77.34,92,88,3.11,overcast clouds,0.0,0.0,GH,2020-02-22 06:33:29
291,Port Macquarie,-31.43,152.92,72.0,100,90,6.93,light rain,0.0,0.0,AU,2020-02-22 06:33:30
292,Tahta,26.77,31.5,48.2,61,0,6.93,clear sky,0.0,0.0,EG,2020-02-22 06:33:31
293,Benguela,-12.58,13.41,78.8,83,75,0.69,broken clouds,0.0,0.0,AO,2020-02-22 06:33:32
294,Dongkan,34.0,119.83,50.74,33,0,9.95,clear sky,0.0,0.0,CN,2020-02-22 06:33:33
295,Oskemen,49.96,82.61,24.8,79,75,6.71,broken clouds,0.0,0.0,KZ,2020-02-22 06:33:33
296,Paramonga,-10.67,-77.83,72.27,83,100,6.04,overcast clouds,0.0,0.0,PE,2020-02-22 06:33:34
297,Leh,34.17,77.58,5.45,47,0,1.14,clear sky,0.0,0.0,IN,2020-02-22 06:30:43
298,Toora-Khem,52.47,96.11,20.95,83,100,2.35,overcast clouds,0.0,0.0,RU,2020-02-22 06:33:35
299,Mahajanga,-15.72,46.32,78.8,94,40,3.36,light rain,0.0,0.0,MG,2020-02-22 06:33:36
300,Oum Hadjer,13.3,19.7,68.92,17,33,7.74,scattered clouds,0.0,0.0,TD,2020-02-22 06:33:36
301,Mao,39.89,4.27,48.2,93,17,4.7,few clouds,0.0,0.0,ES,2020-02-22 06:33:37
302,Constitucion,-35.33,-72.42,51.46,92,0,4.45,clear sky,0.0,0.0,CL,2020-02-22 06:29:26
303,Furano,43.28,142.47,37.4,59,75,10.29,broken clouds,0.0,0.0,JP,2020-02-22 06:33:39
304,Amla,21.93,78.12,86.7,29,0,9.71,clear sky,0.0,0.0,IN,2020-02-22 06:33:39
305,Maldonado,-34.67,-54.92,60.8,63,40,17.22,scattered clouds,0.0,0.0,UY,2020-02-22 06:33:40
306,Itoman,26.12,127.67,73.4,64,75,6.93,broken clouds,0.0,0.0,JP,2020-02-22 06:33:42
307,Trofors,65.53,13.41,39.2,80,75,23.04,shower rain,0.0,0.0,NO,2020-02-22 06:33:42
308,Touba,8.28,-7.68,74.43,75,8,8.57,clear sky,0.0,0.0,CI,2020-02-22 06:33:43
309,Faanui,-16.48,-151.75,82.38,78,8,13.58,light rain,0.31,0.0,PF,2020-02-22 06:33:44
310,Rjukan,59.88,8.59,28.0,99,100,10.02,snow,0.0,5.25,NO,2020-02-22 06:33:45
311,Klyuchi,52.27,79.17,19.36,89,100,6.98,overcast clouds,0.0,0.0,RU,2020-02-22 06:33:45
312,La Asuncion,11.03,-63.86,77.0,88,26,14.99,scattered clouds,0.0,0.0,VE,2020-02-22 06:33:49
313,Ryotsu,38.08,138.43,51.8,87,90,4.7,light rain,0.0,0.0,JP,2020-02-22 06:33:50
314,Bathsheba,13.22,-59.52,77.0,73,20,10.29,few clouds,0.0,0.0,BB,2020-02-22 06:33:51
315,Kenai,60.55,-151.26,21.99,79,90,9.17,overcast clouds,0.0,0.0,US,2020-02-22 06:30:20
316,Shushtar,32.05,48.86,65.26,52,0,1.66,clear sky,0.0,0.0,IR,2020-02-22 06:33:54
317,Carauari,-4.88,-66.9,74.25,98,100,0.43,moderate rain,5.56,0.0,BR,2020-02-22 06:33:54
318,Bonthe,7.53,-12.51,78.13,92,95,4.94,overcast clouds,0.0,0.0,SL,2020-02-22 06:33:55
319,Gushikawa,26.35,127.87,73.4,43,90,11.41,overcast clouds,0.0,0.0,JP,2020-02-22 06:33:56
320,Vao,-22.67,167.48,79.45,72,0,15.28,clear sky,0.0,0.0,NC,2020-02-22 06:33:57
321,Havre-Saint-Pierre,50.23,-63.6,17.6,67,75,10.29,broken clouds,0.0,0.0,CA,2020-02-22 06:33:58
322,Kiruna,67.86,20.23,30.2,80,43,29.97,scattered clouds,0.0,0.0,SE,2020-02-22 06:33:59
323,Cayenne,4.93,-52.33,75.2,94,73,1.12,light rain,0.38,0.0,GF,2020-02-22 06:34:00
324,Gilbues,-9.83,-45.34,72.81,84,12,0.67,light rain,1.56,0.0,BR,2020-02-22 06:34:00
325,Beringovskiy,63.05,179.32,-10.53,78,1,0.6,clear sky,0.0,0.0,RU,2020-02-22 06:34:01
326,Komarikhinskiy,58.1,57.12,28.4,100,89,11.18,overcast clouds,0.0,0.0,RU,2020-02-22 06:34:02
327,Yaan,7.38,8.57,73.35,30,0,4.97,clear sky,0.0,0.0,NG,2020-02-22 06:34:02
328,Cabo San Lucas,22.89,-109.91,69.01,64,100,10.58,overcast clouds,0.0,0.0,MX,2020-02-22 06:30:08
329,Zhigalovo,54.81,105.16,24.67,94,100,5.01,light snow,0.0,0.87,RU,2020-02-22 06:34:07
330,Najran,17.49,44.13,68.0,40,50,4.7,scattered clouds,0.0,0.0,SA,2020-02-22 06:34:08
331,Kargil,34.57,76.1,4.03,62,17,3.83,few clouds,0.0,0.0,IN,2020-02-22 06:34:09
332,Boden,65.83,21.69,33.8,86,69,14.99,broken clouds,0.0,0.0,SE,2020-02-22 06:31:13
333,Pochutla,15.74,-96.47,83.21,63,0,1.28,clear sky,0.0,0.0,MX,2020-02-22 06:34:10
334,Poronaysk,49.22,143.12,19.04,91,79,9.95,light snow,0.0,0.38,RU,2020-02-22 06:32:05
335,Tulu Bolo,8.67,38.22,68.97,54,52,11.74,broken clouds,0.0,0.0,ET,2020-02-22 06:34:12
336,Jaisalmer,26.91,70.92,76.19,35,0,12.75,clear sky,0.0,0.0,IN,2020-02-22 06:34:14
337,Akot,21.1,77.06,89.33,27,0,7.54,clear sky,0.0,0.0,IN,2020-02-22 06:33:07
338,Nanortalik,60.14,-45.24,24.12,81,83,15.32,broken clouds,0.0,0.0,GL,2020-02-22 06:34:16
339,Lengshuitan,26.41,111.6,61.97,62,3,4.45,clear sky,0.0,0.0,CN,2020-02-22 06:34:16
340,Antofagasta,-23.65,-70.4,66.2,82,23,4.7,few clouds,0.0,0.0,CL,2020-02-22 06:34:17
341,Koregaon,18.65,74.08,86.63,21,0,10.09,clear sky,0.0,0.0,IN,2020-02-22 06:34:25
342,Agustin Codazzi,10.03,-73.24,58.66,94,98,0.43,overcast clouds,0.0,0.0,CO,2020-02-22 06:34:26
343,Kruisfontein,-34.0,24.73,67.57,71,1,8.14,clear sky,0.0,0.0,ZA,2020-02-22 06:34:32
344,Molln,53.63,10.68,46.4,70,75,18.34,broken clouds,0.0,0.0,DE,2020-02-22 06:34:32
345,Orasac,44.63,16.07,29.62,75,0,3.6,clear sky,0.0,0.0,BA,2020-02-22 06:34:33
346,Tallahassee,30.44,-84.28,39.99,59,1,3.36,clear sky,0.0,0.0,US,2020-02-22 06:34:33
347,Santa Cruz,-17.8,-63.17,73.4,56,90,26.4,overcast clouds,0.0,0.0,BO,2020-02-22 06:34:23
348,Vaitape,-16.52,-151.75,82.38,78,8,13.58,light rain,0.31,0.0,PF,2020-02-22 06:34:35
349,Vangaindrano,-23.35,47.6,76.8,83,89,6.64,light rain,0.56,0.0,MG,2020-02-22 06:34:35
350,South Lake Tahoe,38.93,-119.98,42.8,59,90,4.7,overcast clouds,0.0,0.0,US,2020-02-22 06:31:54
351,Provideniya,64.38,-173.3,-16.55,99,91,2.48,overcast clouds,0.0,0.0,RU,2020-02-22 06:34:37
352,Penzance,50.12,-5.54,51.01,100,86,31.09,light rain,0.19,0.0,GB,2020-02-22 06:32:11
353,Stabat,3.76,98.45,86.0,74,40,6.93,light rain,0.0,0.0,ID,2020-02-22 06:34:39
354,Asfi,32.3,-9.24,51.87,83,0,4.07,clear sky,0.0,0.0,MA,2020-02-22 06:34:41
355,Kirgiz-Miyaki,53.63,54.8,28.99,91,93,3.51,overcast clouds,0.0,0.0,RU,2020-02-22 06:34:41
356,Baikunthpur,23.25,82.55,84.83,27,18,9.08,few clouds,0.0,0.0,IN,2020-02-22 06:34:42
357,Svetlyy,54.67,20.13,39.2,80,40,11.18,scattered clouds,0.0,0.0,RU,2020-02-22 06:34:43
358,Srednekolymsk,67.45,153.68,-21.41,100,82,1.36,broken clouds,0.0,0.0,RU,2020-02-22 06:34:43
359,Tiksi,71.69,128.87,-9.06,86,74,6.91,broken clouds,0.0,0.0,RU,2020-02-22 06:34:44
360,Mackay,-21.15,149.2,86.0,74,75,12.75,broken clouds,0.0,0.0,AU,2020-02-22 06:34:46
361,Norman Wells,65.28,-126.83,5.0,84,75,2.24,light snow,0.0,0.0,CA,2020-02-22 06:34:47
362,Portland,45.52,-122.68,46.0,70,1,6.93,clear sky,0.0,0.0,US,2020-02-22 06:32:04
363,Porto Novo,6.5,2.6,82.4,88,40,3.36,scattered clouds,0.0,0.0,BJ,2020-02-22 06:34:49
364,Rosarito,32.33,-117.03,62.6,82,90,9.17,overcast clouds,0.0,0.0,MX,2020-02-22 06:34:49
365,Hobyo,5.35,48.53,82.15,62,80,19.95,broken clouds,0.0,0.0,SO,2020-02-22 06:34:50
366,Axim,4.87,-2.24,76.91,94,17,2.71,few clouds,0.0,0.0,GH,2020-02-22 06:34:52
367,Tatui,-23.36,-47.86,70.0,94,8,1.01,clear sky,0.0,0.0,BR,2020-02-22 06:34:52
368,Winnemucca,40.97,-117.74,30.2,46,1,3.36,clear sky,0.0,0.0,US,2020-02-22 06:34:54
369,Labuhan,-6.88,112.21,86.67,73,12,9.55,light rain,1.06,0.0,ID,2020-02-22 06:34:55
370,Hibbing,47.43,-92.94,23.0,85,1,3.36,clear sky,0.0,0.0,US,2020-02-22 06:34:56
371,Sovetskiy,61.36,63.58,12.96,84,0,6.71,clear sky,0.0,0.0,RU,2020-02-22 06:34:56
372,Opunake,-39.46,173.86,69.01,77,83,8.99,light rain,0.25,0.0,NZ,2020-02-22 06:34:57
373,Kununurra,-15.77,128.73,102.2,29,60,4.7,broken clouds,0.0,0.0,AU,2020-02-22 06:34:00
374,Livingston,55.9,-3.52,41.0,86,75,23.04,light rain,0.0,0.0,GB,2020-02-22 06:34:59
375,Walvis Bay,-22.96,14.51,64.4,88,96,8.05,overcast clouds,0.0,0.0,NA,2020-02-22 06:35:01
376,Yangambi,0.81,24.43,77.54,67,85,3.98,overcast clouds,0.0,0.0,CD,2020-02-22 06:35:03
377,Yemtsa,63.07,40.33,32.94,89,100,16.08,overcast clouds,0.0,0.0,RU,2020-02-22 06:35:09
378,Henties Bay,-22.12,14.28,64.0,91,75,3.0,broken clouds,0.0,0.0,NA,2020-02-22 06:35:10
379,Chickasha,35.05,-97.94,39.99,59,1,6.93,clear sky,0.0,0.0,US,2020-02-22 06:35:11
380,Xichang,27.9,102.26,53.28,49,7,9.13,clear sky,0.0,0.0,CN,2020-02-22 06:35:12
381,Guarapari,-20.67,-40.5,73.4,94,75,4.7,broken clouds,0.0,0.0,BR,2020-02-22 06:35:13
382,Kembe,4.62,21.89,74.77,36,73,1.39,broken clouds,0.0,0.0,CF,2020-02-22 06:35:13
383,Mobaye,4.32,21.18,75.22,38,91,2.48,overcast clouds,0.0,0.0,CF,2020-02-22 06:35:15
384,Fare,-16.7,-151.02,82.24,79,31,13.94,light rain,0.13,0.0,PF,2020-02-22 06:35:16
385,Monrovia,6.3,-10.8,75.2,94,20,6.93,mist,0.0,0.0,LR,2020-02-22 06:33:13
386,Athabasca,54.72,-113.29,29.39,81,46,8.48,scattered clouds,0.0,0.0,CA,2020-02-22 06:33:33
387,Cuamba,-14.8,36.54,76.73,87,36,1.77,scattered clouds,0.0,0.0,MZ,2020-02-22 06:35:18
388,Baculin,7.45,126.58,78.1,70,39,9.35,light rain,0.5,0.0,PH,2020-02-22 06:35:21
389,Soto La Marina,23.77,-98.22,51.8,63,99,7.0,overcast clouds,0.0,0.0,MX,2020-02-22 06:35:27
390,Acireale,37.61,15.17,54.0,42,4,5.82,clear sky,0.0,0.0,IT,2020-02-22 06:35:29
391,Pavlodar,52.3,76.95,19.4,85,90,6.71,overcast clouds,0.0,0.0,KZ,2020-02-22 06:35:29
392,Ginda,30.69,78.49,61.43,28,0,3.58,clear sky,0.0,0.0,IN,2020-02-22 06:35:32
393,East London,-33.02,27.91,71.6,94,90,11.41,overcast clouds,0.0,0.0,ZA,2020-02-22 06:35:33
394,Souillac,-20.52,57.52,82.99,58,20,5.82,few clouds,0.0,0.0,MU,2020-02-22 06:34:09
395,Pemangkat,1.17,108.97,82.65,81,36,10.49,light rain,2.5,0.0,ID,2020-02-22 06:35:34
396,Narsaq,60.92,-46.05,19.4,44,31,3.36,scattered clouds,0.0,0.0,GL,2020-02-22 06:35:35
397,Shingu,33.73,135.98,60.8,87,75,6.93,shower rain,0.0,0.0,JP,2020-02-22 06:35:36
398,Bilma,18.69,12.92,58.35,29,73,11.54,broken clouds,0.0,0.0,NE,2020-02-22 06:35:37
399,Zharkent,44.16,80.0,42.26,55,95,8.7,overcast clouds,0.0,0.0,KZ,2020-02-22 06:35:38
400,Meulaboh,4.14,96.13,82.92,61,0,5.93,clear sky,0.0,0.0,ID,2020-02-22 06:35:38
401,Monroe,43.15,-77.68,32.0,42,1,14.99,clear sky,0.0,0.0,US,2020-02-22 06:35:39
402,Cotonou,6.37,2.42,82.4,88,40,3.36,scattered clouds,0.0,0.0,BJ,2020-02-22 06:35:40
403,Decatur,39.84,-88.95,30.99,58,1,13.87,clear sky,0.0,0.0,US,2020-02-22 06:31:36
404,Contamana,-7.33,-75.02,73.4,95,100,2.53,light rain,1.69,0.0,PE,2020-02-22 06:35:42
405,Chernyshevskiy,63.01,112.47,7.59,92,96,1.83,light snow,0.0,0.19,RU,2020-02-22 06:35:42
406,Tulum,20.22,-87.47,73.0,88,2,8.01,clear sky,0.0,0.0,MX,2020-02-22 06:35:44
407,Dudinka,69.41,86.18,10.4,85,62,4.47,broken clouds,0.0,0.0,RU,2020-02-22 06:35:48
408,Phuket,8.0,98.25,86.0,58,40,6.93,light rain,0.0,0.0,TH,2020-02-22 06:35:49
409,Port Blair,11.67,92.75,81.73,74,0,15.88,clear sky,0.0,0.0,IN,2020-02-22 06:35:50
410,Jardim,-21.48,-56.14,67.06,63,94,7.02,overcast clouds,0.0,0.0,BR,2020-02-22 06:35:50
411,Pandaria,22.23,81.42,86.67,26,0,7.76,clear sky,0.0,0.0,IN,2020-02-22 06:35:34
412,Chifeng,42.27,118.96,27.82,43,0,18.63,clear sky,0.0,0.0,CN,2020-02-22 06:35:52
413,Vilyuysk,63.76,121.62,0.73,94,90,3.33,overcast clouds,0.0,0.0,RU,2020-02-22 06:35:52
414,Gorin,51.2,136.67,14.38,82,99,2.3,overcast clouds,0.0,0.0,RU,2020-02-22 06:35:53
415,Eskilstuna,59.37,16.51,46.99,81,100,18.34,light intensity drizzle,0.0,0.0,SE,2020-02-22 06:35:55
416,Sibolga,1.74,98.78,90.54,46,0,5.79,clear sky,0.0,0.0,ID,2020-02-22 06:33:24
417,Paita,-5.09,-81.11,77.99,71,70,4.9,broken clouds,0.0,0.0,PE,2020-02-22 06:35:56
418,Kichera,55.94,110.1,13.08,93,100,4.65,light snow,0.0,0.63,RU,2020-02-22 06:35:58
419,Bandar-E Lengeh,26.56,54.88,75.2,78,34,13.87,haze,0.0,0.0,IR,2020-02-22 06:35:58
420,Dingle,11.0,122.67,79.56,75,62,19.15,light rain,1.06,0.0,PH,2020-02-22 06:35:59
421,Chegdomyn,51.12,133.02,7.27,85,99,2.01,overcast clouds,0.0,0.0,RU,2020-02-22 06:32:04
422,Oneonta,42.45,-75.06,26.01,54,0,1.99,clear sky,0.0,0.0,US,2020-02-22 06:36:01
423,Umm Kaddadah,13.6,26.69,64.6,16,84,17.18,broken clouds,0.0,0.0,SD,2020-02-22 06:36:02
424,Tenenkou,14.46,-4.92,73.83,13,66,11.14,broken clouds,0.0,0.0,ML,2020-02-22 06:36:03
425,Serov,59.6,60.58,23.74,92,76,3.6,broken clouds,0.0,0.0,RU,2020-02-22 06:36:04
426,Calama,-22.47,-68.93,59.0,44,75,5.82,broken clouds,0.0,0.0,CL,2020-02-22 06:36:15
427,Paragominas,-2.97,-47.48,71.49,97,100,1.79,overcast clouds,0.0,0.0,BR,2020-02-22 06:36:15
428,Cajazeiras,-6.89,-38.56,71.38,94,100,2.1,light rain,0.12,0.0,BR,2020-02-22 06:36:16
429,Muros,42.78,-9.06,53.01,100,75,4.7,fog,0.0,0.0,ES,2020-02-22 06:34:24
430,Sambava,-14.27,50.17,80.06,77,97,2.13,overcast clouds,0.0,0.0,MG,2020-02-22 06:36:19
431,Senanga,-16.12,23.27,72.73,81,77,5.82,broken clouds,0.0,0.0,ZM,2020-02-22 06:36:20
432,Okato,-39.2,173.88,69.01,79,79,7.0,broken clouds,0.0,0.0,NZ,2020-02-22 06:36:21
433,Bereznik,62.86,42.71,33.4,84,98,13.69,overcast clouds,0.0,0.0,RU,2020-02-22 06:36:21
434,Qeshm,26.96,56.27,77.0,69,75,2.24,haze,0.0,0.0,IR,2020-02-22 06:36:22
435,Santa Rosa,14.31,121.11,89.6,40,20,17.22,few clouds,0.0,0.0,PH,2020-02-22 06:36:22
436,Nagato,34.38,131.2,59.0,41,20,21.92,few clouds,0.0,0.0,JP,2020-02-22 06:36:23
437,Baijiantan,45.63,85.18,23.54,72,99,3.24,overcast clouds,0.0,0.0,CN,2020-02-22 06:36:24
438,Redlands,34.06,-117.18,64.4,36,75,4.7,broken clouds,0.0,0.0,US,2020-02-22 06:35:29
439,The Valley,18.22,-63.06,77.0,73,20,4.7,few clouds,0.0,0.0,AI,2020-02-22 06:36:25
440,Hualmay,-11.1,-77.61,72.64,71,100,2.1,overcast clouds,0.0,0.0,PE,2020-02-22 06:36:26
441,Baruun-Urt,46.68,113.28,14.95,77,0,13.8,clear sky,0.0,0.0,MN,2020-02-22 06:36:27
442,Dalvik,65.97,-18.53,25.48,92,100,15.59,light snow,0.0,1.44,IS,2020-02-22 06:36:28
443,Van Buren,35.44,-94.35,33.8,69,1,4.7,clear sky,0.0,0.0,US,2020-02-22 06:36:28
444,Saint-Augustin,51.23,-58.65,5.74,96,40,9.64,scattered clouds,0.0,0.0,CA,2020-02-22 06:36:29
445,Kalabo,-14.97,22.68,72.52,86,83,4.34,broken clouds,0.0,0.0,ZM,2020-02-22 06:36:32
446,Lovozero,68.0,35.01,28.83,89,51,15.68,broken clouds,0.0,0.0,RU,2020-02-22 06:36:32
447,Colares,38.8,-9.45,57.99,81,0,2.24,clear sky,0.0,0.0,PT,2020-02-22 06:36:33
448,Cody,44.53,-109.06,41.0,17,1,10.29,clear sky,0.0,0.0,US,2020-02-22 06:36:34
449,Dunmore Town,25.5,-76.65,70.88,81,64,25.86,light rain,0.56,0.0,BS,2020-02-22 06:36:35
450,Duluth,46.78,-92.11,26.6,79,90,9.17,overcast clouds,0.0,0.0,US,2020-02-22 06:31:45
451,Husavik,66.04,-17.34,27.93,92,100,15.59,snow,0.0,1.87,IS,2020-02-22 06:36:36
452,Bom Jesus,-9.07,-44.36,70.27,95,85,2.42,moderate rain,3.5,0.0,BR,2020-02-22 06:36:37
453,Sinnamary,5.38,-52.95,79.07,87,62,13.56,light rain,0.5,0.0,GF,2020-02-22 06:36:38
454,Mizan Teferi,6.98,35.58,75.42,63,62,1.81,light rain,0.56,0.0,ET,2020-02-22 06:36:39
455,Maniitsoq,65.42,-52.9,7.92,85,100,6.17,light snow,0.0,0.63,GL,2020-02-22 06:34:15
456,General Roca,-39.03,-67.58,59.0,51,0,4.7,clear sky,0.0,0.0,AR,2020-02-22 06:36:41
457,Poceirao,38.83,-8.79,57.99,87,0,5.82,clear sky,0.0,0.0,PT,2020-02-22 06:36:42
458,Bagdarin,54.43,113.6,13.51,71,98,2.3,overcast clouds,0.0,0.0,RU,2020-02-22 06:36:43
459,Bardsir,29.92,56.57,57.2,35,0,4.7,clear sky,0.0,0.0,IR,2020-02-22 06:36:44
460,Konevo,62.12,39.32,32.2,92,97,15.17,overcast clouds,0.0,0.0,RU,2020-02-22 06:36:44
461,Torit,4.41,32.57,89.55,34,0,1.25,clear sky,0.0,0.0,SS,2020-02-22 06:36:45
462,Hendek,40.8,30.75,41.0,100,75,7.36,broken clouds,0.0,0.0,TR,2020-02-22 06:36:45
463,Ukiah,39.15,-123.21,55.0,66,1,2.89,clear sky,0.0,0.0,US,2020-02-22 06:36:46
464,Kamen-Rybolov,44.75,132.04,25.16,84,99,13.73,light snow,0.0,0.25,RU,2020-02-22 06:36:47
465,Gravdal,68.12,13.5,41.09,69,96,41.0,light snow,0.0,0.69,NO,2020-02-22 06:36:47
466,Tezu,27.92,96.17,80.17,28,100,4.16,overcast clouds,0.0,0.0,IN,2020-02-22 06:36:48
467,Barcelona,41.39,2.16,52.0,81,20,12.75,few clouds,0.0,0.0,ES,2020-02-22 06:35:44
468,Oksfjord,70.24,22.35,35.6,69,40,9.17,scattered clouds,0.0,0.0,NO,2020-02-22 06:36:49
469,Hohhot,40.81,111.65,32.0,27,0,11.18,clear sky,0.0,0.0,CN,2020-02-22 06:34:11
470,Sabang,5.89,95.32,83.71,73,13,28.43,light rain,0.38,0.0,ID,2020-02-22 06:36:52
471,Rocha,-34.48,-54.33,55.63,75,72,7.31,broken clouds,0.0,0.0,UY,2020-02-22 06:36:53
472,Alizai,33.54,70.35,59.02,47,0,3.27,clear sky,0.0,0.0,PK,2020-02-22 06:36:54
473,Atambua,-9.11,124.89,81.77,77,82,5.44,moderate rain,3.06,0.0,ID,2020-02-22 06:36:55
474,Kauhajoki,62.43,22.18,39.99,93,90,13.87,light rain,0.0,0.0,FI,2020-02-22 06:36:55
475,Baykit,61.67,96.37,21.43,89,98,1.99,overcast clouds,0.0,0.0,RU,2020-02-22 06:32:05
476,Vestmannaeyjar,63.44,-20.27,34.09,71,100,24.4,overcast clouds,0.0,0.0,IS,2020-02-22 06:36:57
477,Kristiinankaupunki,62.27,21.38,41.41,86,100,19.35,light rain,0.31,0.0,FI,2020-02-22 06:36:57
478,Salinas,36.68,-121.66,59.0,62,1,4.7,clear sky,0.0,0.0,US,2020-02-22 06:36:58
479,Anadyr,64.75,177.48,-11.0,76,17,2.24,few clouds,0.0,0.0,RU,2020-02-22 06:36:58
480,Sisimiut,66.94,-53.67,-6.07,87,100,6.11,overcast clouds,0.0,0.0,GL,2020-02-22 06:36:59
481,Pingliang,35.54,106.69,46.36,34,0,6.6,clear sky,0.0,0.0,CN,2020-02-22 06:37:00
482,Byron Bay,-28.65,153.62,79.0,65,95,11.41,light rain,0.13,0.0,AU,2020-02-22 06:37:00
483,Turan,16.07,108.22,80.6,65,40,10.29,scattered clouds,0.0,0.0,VN,2020-02-22 06:34:20
484,Aljezur,37.32,-8.8,55.0,97,0,4.0,clear sky,0.0,0.0,PT,2020-02-22 06:37:02
485,Clyde River,70.47,-68.59,-25.6,82,1,4.7,clear sky,0.0,0.0,CA,2020-02-22 06:37:03
486,Biltine,14.53,20.92,68.67,15,36,10.47,scattered clouds,0.0,0.0,TD,2020-02-22 06:37:04
487,Iskateley,67.68,53.15,26.96,88,100,24.18,overcast clouds,0.0,0.0,RU,2020-02-22 06:37:04
488,Totoro,2.51,-76.4,55.83,96,88,0.4,light rain,0.69,0.0,CO,2020-02-22 06:37:06
489,San Quintin,30.48,-115.95,61.36,77,100,6.02,overcast clouds,0.0,0.0,MX,2020-02-22 06:37:07
490,Sumbe,-11.21,13.84,78.91,86,100,2.68,overcast clouds,0.0,0.0,AO,2020-02-22 06:37:08
491,Tarko-Sale,64.92,77.78,12.0,88,21,10.38,few clouds,0.0,0.0,RU,2020-02-22 06:37:08
492,Vila Franca Do Campo,37.72,-25.43,50.0,81,20,5.82,few clouds,0.0,0.0,PT,2020-02-22 06:37:09
493,Moerai,-22.43,-151.33,80.89,70,0,6.53,clear sky,0.0,0.0,PF,2020-02-22 06:37:10
494,Carlisle,40.2,-77.19,30.2,39,1,3.36,clear sky,0.0,0.0,US,2020-02-22 06:37:10
495,Jinka,5.65,36.65,84.61,39,88,9.75,overcast clouds,0.0,0.0,ET,2020-02-22 06:37:12
496,Kuusamo,65.97,29.18,32.0,96,90,16.11,overcast clouds,0.0,0.0,FI,2020-02-22 06:37:14
497,Broome,42.25,-75.83,24.8,49,1,9.17,clear sky,0.0,0.0,US,2020-02-22 06:37:15
498,Zhezkazgan,47.8,67.71,26.6,100,90,8.95,light shower snow,0.0,0.0,KZ,2020-02-22 06:37:16
499,Ixtapa,20.7,-105.2,75.0,88,40,3.65,scattered clouds,0.0,0.0,MX,2020-02-22 06:37:17
500,Luwuk,-0.95,122.79,86.79,67,91,8.08,light rain,0.5,0.0,ID,2020-02-22 06:37:18
501,Newport,51.59,-3.0,53.01,93,90,17.22,light rain,0.0,0.0,GB,2020-02-22 06:37:18
502,Zhicheng,30.3,111.5,64.53,42,20,8.66,few clouds,0.0,0.0,CN,2020-02-22 06:37:21
503,Cadillac,44.25,-85.4,33.8,63,1,12.75,clear sky,0.0,0.0,US,2020-02-22 06:35:37
504,Puerto Escondido,15.85,-97.07,72.55,48,0,7.63,clear sky,0.0,0.0,MX,2020-02-22 06:37:23
505,Hienghene,-20.68,164.93,81.12,71,0,12.28,clear sky,0.0,0.0,NC,2020-02-22 06:37:25
506,Suluq,31.67,20.25,49.93,73,33,7.87,scattered clouds,0.0,0.0,LY,2020-02-22 06:37:26
507,Hay River,60.82,-115.8,8.6,84,20,8.3,few clouds,0.0,0.0,CA,2020-02-22 06:37:26
508,Ambatolampy,-19.38,47.42,68.0,88,75,6.93,broken clouds,0.0,0.0,MG,2020-02-22 06:37:27
509,Eureka,40.8,-124.16,48.99,87,90,4.7,mist,0.0,0.0,US,2020-02-22 06:35:20
510,Camana,-16.62,-72.71,68.63,84,98,2.71,overcast clouds,0.0,0.0,PE,2020-02-22 06:37:29
511,Shimoda,34.67,138.95,66.2,59,75,26.4,broken clouds,0.0,0.0,JP,2020-02-22 06:37:30
512,Vila,42.03,-8.16,50.0,76,0,2.24,clear sky,0.0,0.0,PT,2020-02-22 06:37:31
513,Paris,48.85,2.35,42.8,80,42,10.29,scattered clouds,0.0,0.0,FR,2020-02-22 06:37:02
514,Talnakh,69.49,88.4,10.4,85,76,4.47,broken clouds,0.0,0.0,RU,2020-02-22 06:33:54
515,Mareeba,-17.0,145.43,82.0,94,75,9.17,light rain,0.0,0.0,AU,2020-02-22 06:37:48
516,Dvinskoy,62.15,45.12,34.05,81,71,14.47,broken clouds,0.0,0.0,RU,2020-02-22 06:37:49
517,Misratah,32.38,15.09,58.78,65,8,11.23,clear sky,0.0,0.0,LY,2020-02-22 06:37:51
518,Togur,58.36,82.83,30.25,95,88,6.76,light snow,0.0,0.25,RU,2020-02-22 06:37:52
519,Honningsvag,70.98,25.97,37.24,74,99,35.32,overcast clouds,0.0,0.0,NO,2020-02-22 06:37:53
520,Cascais,38.7,-9.42,57.99,81,0,2.24,clear sky,0.0,0.0,PT,2020-02-22 06:37:55
521,Hirara,24.8,125.28,71.6,78,75,12.75,shower rain,0.0,0.0,JP,2020-02-22 06:37:56
522,Taut,46.28,21.92,32.0,100,21,4.7,few clouds,0.0,0.0,RO,2020-02-22 06:37:56
523,Alyangula,-13.85,136.42,82.4,83,90,9.17,light intensity shower rain,0.0,0.0,AU,2020-02-22 06:36:06
524,Arlit,18.74,7.39,64.35,16,80,7.54,broken clouds,0.0,0.0,NE,2020-02-22 06:38:00
525,Paamiut,61.99,-49.67,11.53,79,99,4.63,light snow,0.0,0.31,GL,2020-02-22 06:38:03
526,Bjornevatn,69.67,29.98,32.0,86,100,38.03,light snow,0.0,0.0,NO,2020-02-22 06:38:03
527,Ellisras,-23.66,27.74,77.52,68,16,10.45,few clouds,0.0,0.0,ZA,2020-02-22 06:38:04
528,Caravelas,-17.71,-39.25,81.01,84,66,17.54,broken clouds,0.0,0.0,BR,2020-02-22 06:35:34
529,Lumphat,13.49,106.98,94.84,23,27,9.78,scattered clouds,0.0,0.0,KH,2020-02-22 06:38:06
530,Nalut,30.33,10.85,44.06,79,0,8.9,clear sky,0.0,0.0,LY,2020-02-22 06:38:06
531,Ban Nahin,18.24,104.21,88.61,28,0,5.79,clear sky,0.0,0.0,LA,2020-02-22 06:38:07
532,Fort-Shevchenko,44.51,50.26,38.19,62,0,9.24,clear sky,0.0,0.0,KZ,2020-02-22 06:38:09
533,Huarmey,-10.07,-78.15,73.44,68,100,0.98,overcast clouds,0.0,0.0,PE,2020-02-22 06:38:11
534,Bereda,43.27,-7.54,46.99,100,75,4.7,fog,0.0,0.0,ES,2020-02-22 06:38:11
535,Barbastro,42.04,0.13,43.0,77,0,1.57,clear sky,0.0,0.0,ES,2020-02-22 06:38:13
536,Shepetivka,50.19,27.06,32.79,95,34,4.09,scattered clouds,0.0,0.0,UA,2020-02-22 06:38:14
537,Oranjemund,-28.55,16.43,63.46,85,79,14.97,broken clouds,0.0,0.0,NA,2020-02-22 06:38:15
538,Borogontsy,62.67,131.17,0.05,92,94,2.08,overcast clouds,0.0,0.0,RU,2020-02-22 06:38:16
539,Progreso,21.28,-89.67,72.0,83,40,10.29,scattered clouds,0.0,0.0,MX,2020-02-22 06:38:17
540,Manali,13.17,80.27,87.8,58,40,8.05,scattered clouds,0.0,0.0,IN,2020-02-22 06:38:18
541,Saravena,6.95,-71.88,76.17,66,99,3.18,overcast clouds,0.0,0.0,CO,2020-02-22 06:38:18
542,Deputatskiy,69.3,139.9,-5.28,100,98,1.95,overcast clouds,0.0,0.0,RU,2020-02-22 06:38:19
543,Camabatela,-8.19,15.38,67.98,94,99,1.52,light rain,1.88,0.0,AO,2020-02-22 06:38:20
544,Rincon,32.3,-81.24,37.0,59,1,9.17,clear sky,0.0,0.0,US,2020-02-22 06:38:20
545,Rio Novo,-21.46,-43.13,73.99,99,81,2.48,light rain,2.81,0.0,BR,2020-02-22 06:38:22
546,Leningradskiy,69.38,178.42,-9.13,93,100,16.82,light snow,0.0,0.19,RU,2020-02-22 06:38:23
547,Usinsk,65.99,57.53,18.03,91,100,25.26,light snow,0.0,0.13,RU,2020-02-22 06:38:25
548,Esmeraldas,-19.76,-44.31,69.8,100,99,2.24,overcast clouds,0.0,0.0,BR,2020-02-22 06:36:42
549,Nishihara,26.18,127.76,73.4,64,75,6.93,broken clouds,0.0,0.0,JP,2020-02-22 06:38:27
550,Omsukchan,62.53,155.8,-15.39,92,37,0.81,scattered clouds,0.0,0.0,RU,2020-02-22 06:38:27
551,Jiayuguan,39.82,98.3,47.01,17,0,6.2,clear sky,0.0,0.0,CN,2020-02-22 06:38:28
552,El Jicaro,14.92,-89.9,59.43,92,35,4.23,light rain,0.19,0.0,GT,2020-02-22 06:38:29
